City_ID,City,Lat,Lng,Max Temp,Humidity,Cloudiness,Wind Speed,Country,Date
0,sao vicente,-23.9631,-46.3919,23.57,66,0,0.75,BR,1727323687
1,beni mellal,32.3373,-6.3498,22.64,33,18,0.65,MA,1727323688
2,vadso,70.0744,29.7487,10.09,93,75,1.03,NO,1727323688
3,college,64.8569,-147.8028,6.99,87,75,2.57,US,1727323688
4,invercargill,-46.4,168.35,9.45,85,100,2.68,NZ,1727323416
5,port-aux-francais,-49.35,70.2167,3.17,70,81,11.9,TF,1727323446
6,isafjordur,66.0755,-23.124,1.7,64,61,1.02,IS,1727323689
7,grytviken,-54.2811,-36.5092,-1.86,90,37,5.2,GS,1727323689
8,verdal,63.7933,11.4817,7.4,88,100,4.92,NO,1727323689
9,albany,42.6001,-73.9662,14.8,79,100,1.34,US,1727323668
10,graham,47.0529,-122.2943,13.4,92,75,6.69,US,1727323689
11,kontagora,10.3999,5.4695,23.38,88,89,1.55,NG,1727323690
12,bethel,41.3712,-73.414,16.98,86,100,1.54,US,1727323690
13,hawaiian paradise park,19.5933,-154.9731,25.73,83,100,2.06,US,1727323690
14,hachinohe,40.5,141.5,22.1,83,75,4.12,JP,1727323690
15,waitangi,-43.9535,-176.5597,9.9,73,59,2.24,NZ,1727323690
16,windhoek,-22.5594,17.0832,21.35,35,92,0.45,NA,1727323691
17,tiksi,71.6872,128.8694,2.02,92,63,3.45,RU,1727323691
18,edinburgh of the seven seas,-37.0676,-12.3116,13.51,88,100,8.21,SH,1727323691
19,arraial do cabo,-22.9661,-42.0278,22.75,88,1,14.34,BR,1727323541
20,alo,6.5486,4.2686,23.49,92,98,1.41,NG,1727323691
21,iqaluit,63.7506,-68.5145,3.72,86,64,1.79,CA,1727323691
22,hopelchen,19.7667,-89.85,24.06,97,100,1.95,MX,1727323692
23,atafu village,-8.5421,-172.5159,28.54,71,38,3.35,TK,1727323692
24,pesaro,43.9036,12.8903,22.19,72,27,3.89,IT,1727323692
25,tual,-5.6667,132.75,27.55,80,30,6.73,ID,1727323692
26,natal,-5.795,-35.2094,23.36,83,20,1.54,BR,1727323693
27,awjilah,29.1081,21.2869,23.56,75,0,5.37,LY,1727323693
28,adamstown,-25.066,-130.1015,20.65,91,93,7.91,PN,1727323693
29,aasiaat,68.7098,-52.8699,-0.46,84,37,3.82,GL,1727323693
30,fale old settlement,-9.3852,-171.2468,28.4,73,57,3.57,TK,1727323694
31,pathein,16.7833,94.7333,29.6,74,99,2.04,MM,1727323694
32,stanley,54.868,-1.6985,10.16,97,100,9.77,GB,1727323491
33,langsa,4.4683,97.9683,23.26,97,100,2.25,ID,1727323531
34,thompson,55.7435,-97.8558,14.02,78,100,4.33,CA,1727323694
35,shingu,33.7333,135.9833,25.34,81,86,2.9,JP,1727323695
36,jalai nur,49.45,117.7,17.64,39,94,7.48,CN,1727323695
37,weno,7.4515,151.8468,30.97,74,100,2.06,FM,1727323695
38,lebu,-37.6167,-73.65,5.91,83,100,5.08,CL,1727323695
39,vernon,50.2581,-119.2691,15.42,88,100,2.24,CA,1727323696
40,klyuchi,52.2667,79.1667,7.3,53,22,3.75,RU,1727323696
41,port macquarie,-31.4333,152.9167,16.15,95,100,2.24,AU,1727323696
42,anadyr,64.75,177.4833,6.28,86,75,6.0,RU,1727323696
43,jutai,-5.1833,-68.9,26.64,55,99,1.36,BR,1727323696
44,supe,-10.8,-77.7333,16.76,83,84,3.74,PE,1727323697
45,acapulco de juarez,16.8634,-99.8901,22.9,94,100,5.66,MX,1727323505
46,kodiak,57.79,-152.4072,5.73,81,100,6.69,US,1727323692
47,fort st. john,56.2499,-120.8529,10.18,54,100,5.64,CA,1727323697
48,cabo san lucas,22.8909,-109.9124,24.75,79,0,7.54,MX,1727323470
49,olyokminsk,60.3736,120.4264,8.97,61,100,4.1,RU,1727323697
50,colonia,50.9333,6.95,15.54,92,100,5.14,DE,1727323539
51,goz beida,13.95,20.55,26.06,69,30,1.52,TD,1727323698
52,solnechnyy,50.7214,136.6319,9.65,98,100,1.62,RU,1727323698
53,margaret river,-33.95,115.0667,19.08,58,1,4.78,AU,1727323698
54,port mathurin,-19.6833,63.4167,22.27,76,52,9.04,MU,1727323698
55,ust'-kut,56.7938,105.7672,8.26,59,39,2.89,RU,1727323699
56,chittarkonda,18.1167,82.0833,27.47,76,92,0.69,IN,1727323699
57,sungailiat,-1.85,106.1333,30.22,66,63,2.49,ID,1727323634
58,vorgashor,67.5833,63.95,-0.25,76,100,4.03,RU,1727323699
59,queenstown,-31.8976,26.8753,11.27,25,3,3.83,ZA,1727323699
60,yellowknife,62.456,-114.3525,9.67,100,100,6.69,CA,1727323700
61,bredasdorp,-34.5322,20.0403,9.82,90,5,3.54,ZA,1727323700
62,bhawana,31.5692,72.649,35.51,32,0,2.67,PK,1727323700
63,jamestown,42.097,-79.2353,18.34,95,100,2.06,US,1727323700
64,port elizabeth,-33.918,25.5701,15.16,92,100,11.83,ZA,1727323700
65,urucara,-2.5364,-57.76,24.23,78,62,0.54,BR,1727323700
66,puerto el triunfo,13.2833,-88.55,25.25,89,96,2.63,SV,1727323701
67,bilibino,68.0546,166.4372,-1.12,83,100,1.78,RU,1727323701
68,vilyuchinsk,52.9306,158.4028,17.15,69,100,6.66,RU,1727323701
69,san juan de miraflores,-12.1629,-76.9635,16.29,87,80,2.43,PE,1727323701
70,sosnovo-ozerskoye,52.5249,111.5418,11.74,67,75,2.7,RU,1727323701
71,nkowakowa,-23.8878,30.2871,20.76,45,14,1.65,ZA,1727323701
72,gargalianoi,37.0667,21.6333,20.26,82,8,4.67,GR,1727323702
73,marco island,25.9363,-81.7157,26.0,94,100,13.15,US,1727323702
74,kihangara,-2.5833,33.35,21.62,66,59,2.55,TZ,1727323702
75,colchani,-20.3,-66.9333,9.55,29,93,2.42,BO,1727323702
76,tawau,4.2498,117.8871,30.07,74,100,1.34,MY,1727323574
77,iskateley,67.6803,53.1512,5.96,92,100,6.28,RU,1727323703
78,carnarvon,-24.8667,113.6333,22.71,62,0,5.0,AU,1727323703
79,kailua-kona,19.6406,-155.9956,26.98,88,75,3.09,US,1727323703
80,port saint john's,-31.6229,29.5448,18.05,81,66,3.53,ZA,1727323703
81,petropavlovsk-kamchatsky,53.0452,158.6483,16.33,42,20,3.0,RU,1727323703
82,heihe,50.2441,127.4902,16.32,45,1,2.68,CN,1727323703
83,ushuaia,-54.8,-68.3,-3.91,93,33,2.71,AR,1727323692
84,maitum,6.0392,124.4986,29.75,64,36,2.22,PH,1727323704
85,turkmenbasy,40.0222,52.9552,18.95,54,0,6.68,TM,1727323704
86,beterou,9.1992,2.2586,22.28,98,100,1.28,BJ,1727323704
87,haiku-pauwela,20.9219,-156.3051,26.01,70,40,9.39,US,1727323704
88,longyearbyen,78.2186,15.6401,1.91,75,75,12.86,SJ,1727323705
89,sinabang,2.4803,96.3801,30.14,68,52,2.41,ID,1727323705
90,harstad,68.799,16.5293,7.31,97,100,16.09,NO,1727323705
91,enewetak,11.3474,162.3373,29.24,70,5,2.34,MH,1727323705
92,connell,46.6635,-118.8611,18.85,49,100,7.55,US,1727323705
93,bati,11.1833,40.0167,21.44,50,70,1.82,ET,1727323706
94,crane,31.3974,-102.3501,21.71,41,0,4.87,US,1727323706
95,oamaru,-45.0784,170.9801,8.54,87,99,9.13,NZ,1727323706
96,ulladulla,-35.35,150.4667,10.4,83,100,7.3,AU,1727323706
97,bull savanna,17.8868,-77.5902,25.75,87,79,6.28,JM,1727323706
98,puerto natales,-51.7236,-72.4875,4.1,90,100,5.75,CL,1727323706
99,azangaro,-14.9167,-70.2167,10.01,51,82,1.84,PE,1727323707
100,blackmans bay,-43.0167,147.3167,13.18,50,98,2.24,AU,1727323707
101,runaway bay,18.4596,-77.3357,28.15,79,100,2.65,JM,1727323707
102,ilulissat,69.2167,-51.1,1.01,86,40,2.06,GL,1727323707
103,bei'an,46.4398,126.2373,18.43,48,7,2.05,CN,1727323707
104,champerico,14.3,-91.9167,25.91,81,100,8.6,GT,1727323707
105,portland,45.5234,-122.6762,14.89,94,0,0.45,US,1727323387
106,newman,37.3138,-121.0208,21.69,62,0,1.34,US,1727323708
107,cidreira,-30.1811,-50.2056,18.07,97,99,2.19,BR,1727323708
108,nabire,-3.3667,135.4833,28.46,77,89,3.06,ID,1727323708
109,tsetserleg,47.475,101.4542,12.23,31,100,1.08,MN,1727323709
110,island harbour,50.724,-1.2758,15.55,73,89,4.47,GB,1727323709
111,ambalangoda,6.2355,80.0538,29.43,79,65,5.28,LK,1727323506
112,georgetown,5.4112,100.3354,29.96,70,20,3.09,MY,1727323648
113,saverne,48.8333,7.25,14.95,89,100,9.53,FR,1727323709
114,al ghayzah,16.2079,52.176,26.38,78,41,0.16,YE,1727323709
115,papatowai,-46.5619,169.4708,7.49,82,100,5.44,NZ,1727323710
116,mogocha,53.7333,119.7667,16.12,41,67,3.53,RU,1727323710
117,saint-philippe,-21.3585,55.7679,21.78,82,37,4.88,RE,1727323710
118,saint-pierre,-21.3393,55.4781,23.82,64,40,4.63,RE,1727323710
119,kayangel,8.0823,134.7173,28.99,75,100,4.07,PW,1727323710
120,puerto ayora,-0.7393,-90.3518,18.64,97,94,3.44,EC,1727323711
121,polyarnyy,69.1989,33.4478,11.43,87,86,8.92,RU,1727323711
122,hamilton,39.1834,-84.5333,19.93,88,0,2.06,US,1727323711
123,roslavl',53.9528,32.8639,14.38,47,100,4.41,RU,1727323711
124,hilo,19.7297,-155.09,25.85,86,100,2.24,US,1727323711
125,tura,25.5198,90.2201,22.59,99,100,1.46,IN,1727323712
126,badger,64.8,-147.5333,6.95,87,100,2.57,US,1727323712
127,marsh harbour,26.5412,-77.0636,28.49,77,99,8.65,BS,1727323712
128,pandan,14.0453,124.1694,29.78,67,100,1.93,PH,1727323712
129,zahedan,29.4963,60.8629,22.95,21,5,2.06,IR,1727323712
130,dudinka,69.4058,86.1778,2.42,82,100,2.97,RU,1727323709
131,ornskoldsvik,63.2909,18.7153,9.53,87,100,5.14,SE,1727323713
132,nuku'alofa,-21.1333,-175.2,23.19,78,40,3.6,TO,1727323713
133,aral,40.5156,81.2636,26.88,20,100,2.17,CN,1727323713
134,dahab,28.501,34.5134,28.05,57,0,5.13,EG,1727323713
135,naze,28.3667,129.4833,26.98,80,22,9.2,JP,1727323713
136,pisco,-13.7,-76.2167,17.03,82,60,1.54,PE,1727323445
137,codrington,-38.2667,141.9667,12.37,54,61,5.83,AU,1727323714
138,talara,-4.5772,-81.2719,17.16,88,5,4.15,PE,1727323714
139,mermoz boabab,14.7065,-17.4758,26.33,86,95,8.07,SN,1727323714
140,hermanus,-34.4187,19.2345,9.89,87,0,3.47,ZA,1727323714
141,chekmagush,55.1319,54.6556,8.59,57,45,2.23,RU,1727323714
142,avarua,-21.2078,-159.775,23.03,78,100,3.09,CK,1727323715
143,yorkton,51.2167,-102.4677,23.05,33,4,7.18,CA,1727323715
144,east london,-33.0153,27.9116,18.52,94,100,3.09,ZA,1727323715
145,ayame,5.6083,-3.1563,22.6,97,100,1.16,CI,1727323715
146,princeville,45.7668,-61.2985,11.54,92,75,2.06,CA,1727323715
147,kone,-21.0595,164.8658,29.67,38,15,2.56,NC,1727323716
148,merrill,45.1805,-89.6835,15.02,96,4,1.13,US,1727323716
149,kristiansund,63.1115,7.732,7.36,81,75,4.63,NO,1727323716
150,padang,-0.9492,100.3543,29.54,72,84,1.53,ID,1727323716
151,broken hill,-31.95,141.4333,15.84,19,0,10.99,AU,1727323716
152,masuda,34.6667,131.85,27.37,69,41,2.92,JP,1727323716
153,yeppoon,-23.1333,150.7333,23.3,67,56,6.53,AU,1727323717
154,tsiombe,-25.3,45.4833,23.87,74,47,0.77,MG,1727323717
155,rundu,-17.9333,19.7667,19.6,35,6,1.68,NA,1727323717
156,gore,-46.1028,168.9436,6.3,98,100,1.57,NZ,1727323717
157,port lincoln,-34.7333,135.8667,13.34,53,4,4.72,AU,1727323718
158,fort beaufort,-32.7748,26.6338,14.94,88,100,3.74,ZA,1727323718
159,bankim,6.083,11.4905,19.7,96,100,0.36,CM,1727323718
160,puquio,-14.7,-74.1333,9.25,40,58,1.27,PE,1727323718
161,lihue,21.9789,-159.3672,26.77,71,20,5.14,US,1727323718
162,rikaze,29.25,88.8833,12.8,50,100,1.12,CN,1727323719
163,souillac,-20.5167,57.5167,22.95,69,14,5.91,MU,1727323719
164,narrabri,-30.3167,149.7833,20.45,61,99,1.86,AU,1727323719
165,taoudenni,22.6783,-3.9836,33.1,27,0,5.24,ML,1727323719
166,touros,-5.1989,-35.4608,24.33,75,7,7.34,BR,1727323704
167,igarka,67.4667,86.5833,1.74,97,100,2.58,RU,1727323720
168,el galpon,-25.3807,-64.6526,21.54,52,100,3.46,AR,1727323720
169,shelby,35.2001,-89.8668,18.57,89,0,1.54,US,1727323720
170,talnakh,69.4865,88.3972,2.32,78,75,1.16,RU,1727323721
171,erenhot,43.6475,111.9767,17.74,43,12,4.88,CN,1727323721
172,dunedin,-45.8742,170.5036,5.45,96,100,3.58,NZ,1727323721
173,mahina,-17.5065,-149.489,26.87,74,75,2.06,PF,1727323721
174,papao,-17.75,-149.55,26.82,79,30,4.95,PF,1727323721
175,new norfolk,-42.7826,147.0587,13.84,46,99,3.58,AU,1727323721
176,fort bragg,35.139,-79.006,24.85,90,75,1.54,US,1727323722
177,utrik,11.2278,169.8474,28.89,74,11,4.71,MH,1727323722
178,llucmajor,39.4909,2.8911,22.58,89,12,7.73,ES,1727323722
179,st. john's,47.5649,-52.7093,11.1,95,100,5.36,CA,1727323504
180,zheshart,62.0731,49.5733,9.31,70,62,3.62,RU,1727323722
181,bronte,37.7895,14.8342,16.41,51,15,1.16,IT,1727323723
182,kapa'a,22.0752,-159.319,27.18,73,20,5.14,US,1727323723
183,acarau,-2.8856,-40.12,24.9,80,40,6.94,BR,1727323723
184,najran,17.4924,44.1277,25.54,23,100,0.53,SA,1727323723
185,whitehorse,60.7161,-135.0538,5.45,93,75,2.06,CA,1727323453
186,uruzgan,32.8333,66.0,26.46,9,0,1.14,AF,1727323723
187,malango,-2.9627,119.9001,26.87,69,98,1.87,ID,1727323724
188,nagqu,31.5,92.0,10.09,28,0,2.1,CN,1727323724
189,wailua homesteads,22.0669,-159.378,26.44,76,20,5.14,US,1727323724
190,santana,-0.0583,-51.1817,28.1,89,20,2.57,BR,1727323609
191,tolanaro,-25.0319,46.9987,21.96,87,85,4.82,MG,1727323724
192,tazovsky,67.4667,78.7,0.82,90,100,7.73,RU,1727323724
193,kapuskasing,49.4169,-82.4331,11.14,97,92,1.92,CA,1727323725
194,alotau,-10.3069,150.4462,28.04,79,98,2.73,PG,1727323725
195,vila velha,-20.3297,-40.2925,23.86,86,40,4.47,BR,1727323715
196,lom sak,16.7798,101.2422,25.37,89,89,1.13,TH,1727323726
197,noshiro,40.2039,140.0242,25.05,65,37,2.7,JP,1727323726
198,mata-utu,-13.2816,-176.1745,26.52,81,13,9.21,WF,1727323726
199,kosong,38.3788,128.4676,22.0,87,21,3.54,KR,1727323727
200,ende,-8.8432,121.6623,30.8,59,57,3.76,ID,1727323665
201,brookings,44.3114,-96.7984,17.32,67,0,3.6,US,1727323727
202,canas,10.4294,-85.0931,25.89,90,100,0.74,CR,1727323727
203,kununurra,-15.7667,128.7333,33.99,43,99,3.09,AU,1727323727
204,timimoun,29.2639,0.231,29.03,36,1,2.13,DZ,1727323728
205,bereket,39.2446,55.5154,18.95,49,0,4.01,TM,1727323728
206,morehead city,34.7229,-76.726,26.0,85,20,2.68,US,1727323535
207,quelimane,-17.8786,36.8883,19.07,81,0,1.38,MZ,1727323729
208,margate,51.3813,1.3862,12.71,92,86,3.78,GB,1727323729
209,kuala terengganu,5.3302,103.1408,28.57,71,100,1.85,MY,1727323729
210,nar'yan-mar,67.6713,53.087,5.98,92,100,6.21,RU,1727323729
211,keflavik,64.0049,-22.5624,3.24,87,20,0.51,IS,1727323730
212,urangan,-25.3,152.9,21.18,71,75,7.58,AU,1727323730
213,coquimbo,-29.9533,-71.3436,11.85,88,0,4.12,CL,1727323730
214,nyurba,63.2842,118.3319,6.65,69,97,4.56,RU,1727323730
215,labuan,5.2767,115.2417,26.94,77,100,2.23,MY,1727323730
216,kapelle-op-den-bos,51.0167,4.3667,15.49,93,75,4.12,BE,1727323730
217,santa ana,33.7456,-117.8678,18.84,82,40,3.6,US,1727323731
218,tinajo,29.0788,-13.7081,20.49,83,0,3.6,ES,1727323731
219,kijang,35.2442,129.2139,24.39,68,88,2.97,KR,1727323731
220,vilcun,-38.65,-72.2333,0.72,94,64,0.63,CL,1727323731
221,debre werk',10.6667,38.1667,12.57,76,98,1.19,ET,1727323731
222,balykchy,42.4557,76.1861,15.79,54,99,3.63,KG,1727323731
223,faya-largeau,17.9257,19.1043,31.58,23,0,5.28,TD,1727323732
224,minas de marcona,-15.2119,-75.1103,9.53,93,63,5.58,PE,1727323732
225,tateyama,34.9833,139.8667,25.66,77,40,0.92,JP,1727323732
226,egilsstadir,65.2653,-14.3948,-0.96,92,99,1.51,IS,1727323732
227,neiafu,-18.65,-173.9833,25.38,69,40,6.17,TO,1727323732
228,punta arenas,-53.15,-70.9167,3.06,93,75,7.2,CL,1727323733
229,namibe,-15.1961,12.1522,18.88,93,94,0.58,AO,1727323733
230,lindsay,36.203,-119.0882,27.11,47,0,2.06,US,1727323733
231,pasni,25.2631,63.471,28.83,65,51,2.14,PK,1727323576
232,illizi,26.4833,8.4667,31.3,30,45,4.56,DZ,1727323733
233,kitui,-1.367,38.0106,17.49,80,96,2.62,KE,1727323733
234,shubarshi,48.5872,57.1869,9.68,37,0,4.55,KZ,1727323733
235,port alfred,-33.5906,26.891,15.1,95,100,4.02,ZA,1727323734
236,macon,39.8667,-88.9668,17.03,72,0,0.0,US,1727323734
237,evergreen,39.6333,-105.3172,18.34,46,0,0.89,US,1727323734
238,noosa heads,-26.3833,153.15,24.29,63,74,8.38,AU,1727323734
239,nosy varika,-20.5833,48.5333,22.47,73,59,2.06,MG,1727323734
240,udachny,66.4167,112.4,5.01,66,28,5.52,RU,1727323735
241,xianshuigu,38.985,117.3828,24.0,53,0,2.0,CN,1727323735
242,tarawa,1.419,172.984,31.05,70,20,1.54,KI,1727323735
243,banjarmasin,-3.3244,114.591,31.08,42,24,1.84,ID,1727323215
244,garissa,-0.4536,39.6401,23.66,79,56,6.94,KE,1727323477
245,nizhneudinsk,54.9076,99.0276,6.85,52,100,0.2,RU,1727323735
246,yeosu,34.7546,127.6599,25.0,69,93,1.05,KR,1727323736
247,nova sintra,14.8667,-24.7167,26.72,83,100,3.89,CV,1727323736
248,kosti,13.1629,32.6635,26.97,70,38,4.09,SD,1727323736
249,hollola,61.05,25.4333,12.63,84,100,5.4,FI,1727323736
250,santiago,-33.4569,-70.6483,12.28,62,0,0.89,CL,1727322965
251,olonkinbyen,70.9221,-8.7187,-0.96,95,100,6.5,SJ,1727323736
252,amet,25.3,73.9333,28.79,66,92,2.31,IN,1727323737
253,kingston,17.997,-76.7936,28.53,65,75,5.66,JM,1727323450
254,rongelap,11.1635,166.8941,28.8,74,57,3.95,MH,1727323737
255,farafangana,-22.8167,47.8333,21.88,85,11,4.27,MG,1727323737
256,palmer,42.1584,-72.3287,14.73,79,100,0.0,US,1727323737
257,sitka,57.0531,-135.33,9.94,76,40,2.57,US,1727323737
258,flin flon,54.7682,-101.865,18.24,64,45,6.27,CA,1727323738
259,tralee,52.2704,-9.7026,9.81,96,100,6.17,IE,1727323738
260,yanchep,-31.55,115.6833,24.6,42,0,4.71,AU,1727323738
261,pacasmayo,-7.4006,-79.5714,16.14,92,57,4.32,PE,1727323738
262,khanty-mansiysk,61.0042,69.0019,0.06,69,0,3.0,RU,1727323641
263,aswan,24.0934,32.907,26.24,33,0,3.49,EG,1727323606
264,taber,49.8167,-112.1518,19.69,45,37,5.7,CA,1727323739
265,sisimiut,66.9395,-53.6735,6.5,69,53,2.55,GL,1727323739
266,west island,-12.1568,96.8225,27.99,78,26,6.69,CC,1727323739
267,oruro,-17.9833,-67.15,9.33,47,81,1.88,BO,1727323510
268,ngurore,9.2833,12.2333,22.6,93,91,0.67,NG,1727323740
269,hasaki,35.7333,140.8333,24.84,81,78,6.84,JP,1727323740
270,chos malal,-37.3781,-70.2709,8.22,27,0,0.24,AR,1727323740
271,rabaul,-4.1967,152.1721,28.33,74,99,0.78,PG,1727323740
272,siwa oasis,29.2041,25.5195,24.52,57,0,3.31,EG,1727323740
273,binzhou,37.3667,118.0167,25.08,51,57,3.23,CN,1727323740
274,bonthe,7.5264,-12.505,23.17,95,100,2.13,SL,1727323741
275,bodo,67.28,14.405,6.02,89,75,3.09,NO,1727323741
276,nguigmi,14.2495,13.1092,29.26,52,0,3.13,NE,1727323741
277,castro,-24.7911,-50.0119,20.61,37,11,1.37,BR,1727323741
278,bikenibeu village,1.3673,173.1241,30.98,70,20,1.54,KI,1727323742
279,huambo,-12.7761,15.7392,15.41,29,15,0.27,AO,1727323742
280,kralendijk,12.15,-68.2667,28.99,79,3,4.12,BQ,1727323742
281,zouerate,22.7187,-12.4521,30.17,39,100,3.18,MR,1727323742
282,mao,39.8885,4.2658,23.31,88,75,7.2,ES,1727323742
283,shambu,9.5667,37.1,11.36,88,95,0.53,ET,1727323743
284,dzhalagash,45.0833,64.6667,14.29,26,43,9.07,KZ,1727323743
285,kungalv,57.871,11.9805,9.54,88,55,2.22,SE,1727323743
286,walvis bay,-22.9575,14.5053,18.22,43,57,6.15,NA,1727323743
287,rancho palos verdes,33.7445,-118.387,17.57,91,1,0.89,US,1727323743
288,hotan,37.0997,79.9269,26.0,19,0,2.3,CN,1727323744
289,bairnsdale,-37.8333,147.6167,13.36,57,86,3.13,AU,1727323539
290,rosetta,31.4044,30.4164,23.22,71,0,3.56,EG,1727323744
291,conde,-7.2597,-34.9075,22.7,83,20,3.09,BR,1727323527
292,micheweni,-4.9667,39.8333,24.53,76,72,3.95,TZ,1727323744
293,hawassa,7.05,38.4667,16.72,90,99,1.23,ET,1727323744
294,arvayheer,46.2639,102.775,14.79,28,34,5.17,MN,1727323745
295,beau vallon,-20.4189,57.6953,22.13,78,40,3.09,MU,1727323582
296,sianow,54.2265,16.2913,13.77,84,100,4.26,PL,1727323745
297,happy valley-goose bay,53.3168,-60.3315,8.53,74,64,0.67,CA,1727323623
298,susuman,62.7833,148.1667,7.08,48,3,1.89,RU,1727323746
299,nemuro,43.3236,145.575,17.25,82,79,5.01,JP,1727323746
300,puerto armuelles,8.2833,-82.8667,28.38,71,100,3.58,PA,1727323746
301,vuktyl,63.8567,57.3094,5.58,82,100,4.58,RU,1727323746
302,waddan,29.1614,16.139,25.12,56,75,1.4,LY,1727323746
303,alofi,-19.0595,-169.9187,22.94,83,100,3.09,NU,1727323622
304,uturoa,-16.7333,-151.4333,26.4,82,24,4.74,PF,1727323747
305,kolonia town,6.964,158.206,31.06,79,100,1.54,FM,1727323747
306,leposaviq,43.1039,20.8028,12.47,89,58,0.87,XK,1727323747
307,strezhevoy,60.7333,77.5889,1.48,94,100,5.85,RU,1727323747
308,qaqortoq,60.7167,-46.0333,3.41,94,11,1.14,GL,1727323747
309,ust-nera,64.5667,143.2,5.3,72,48,3.27,RU,1727323748
310,san antonio de pale,-1.4014,5.6325,24.94,83,84,5.16,GQ,1727323748
311,broome,42.2506,-75.833,16.5,85,100,3.13,US,1727323748
312,kodinsk,58.6881,99.1844,3.07,85,100,3.37,RU,1727323748
313,scarborough,54.2797,-0.4044,12.66,92,100,4.02,GB,1727323632
314,sambava,-14.2667,50.1667,22.33,69,29,4.48,MG,1727323749
315,prestatyn,53.3375,-3.4078,12.17,96,100,4.09,GB,1727323749
316,severnoye,56.3491,78.3619,2.65,69,26,4.85,RU,1727323749
317,pohang,36.0322,129.365,26.29,63,86,1.5,KR,1727323519
318,moussoro,13.6408,16.4901,28.39,58,6,2.99,TD,1727323750
319,dedza,-14.3779,34.3332,14.95,45,0,0.5,MW,1727323750
320,san juan del sur,11.2529,-85.8705,24.65,88,100,2.94,NI,1727323750
321,camenca,48.0319,28.6978,16.23,81,93,4.14,MD,1727323750
322,ribeira grande,38.5167,-28.7,20.43,84,92,2.24,PT,1727323750
323,krasnyy chikoy,50.3643,108.7512,14.18,66,73,3.29,RU,1727323750
324,bom jardim,-7.7958,-35.5872,20.14,90,84,2.41,BR,1727323751
325,howrah,22.5892,88.3103,27.0,94,100,3.09,IN,1727323751
326,prakhon chai,14.6059,103.1208,30.23,68,60,2.42,TH,1727323751
327,damara,4.9608,18.7035,21.38,96,100,1.04,CF,1727323751
328,callao,-12.0667,-77.15,17.16,82,100,3.6,PE,1727323751
329,salzwedel,52.85,11.15,13.87,92,100,6.44,DE,1727323559
330,yaren,-0.5472,166.916,28.43,68,5,1.16,NR,1727323752
331,constantia,44.1833,28.65,15.38,79,100,3.8,RO,1727323595
332,las khorey,11.1595,48.1967,31.88,57,74,1.45,SO,1727323752
333,puerto baquerizo moreno,-0.9,-89.6,19.77,87,68,4.7,EC,1727323752
334,gorontalo,0.5412,123.0595,31.99,58,84,3.89,ID,1727323752
335,longgang,37.6508,120.3286,21.59,60,16,5.69,CN,1727323753
336,bathsheba,13.2167,-59.5167,28.34,83,40,7.2,BB,1727323753
337,dawei,14.0833,98.2,30.53,62,86,1.6,MM,1727323753
338,usinsk,65.9939,57.5281,3.84,90,100,7.99,RU,1727323754
339,zabol,32.25,67.25,24.07,10,0,1.12,AF,1727323754
340,cole harbour,44.6724,-63.4751,13.85,94,99,2.57,CA,1727323564
341,nova vicosa,-17.8919,-39.3719,22.94,78,0,4.34,BR,1727323755
342,selkirk,50.1436,-96.8845,20.1,71,0,1.79,CA,1727323756
343,jiangyou,31.7667,104.7167,29.07,58,11,2.71,CN,1727323756
344,poltava,49.5937,34.5407,11.21,27,85,3.35,UA,1727323756
345,nikolayevsk-on-amure,53.1406,140.73,15.09,79,100,0.63,RU,1727323757
346,lompoc,34.6391,-120.4579,14.4,86,0,3.58,US,1727323757
347,vavozh,56.7751,51.931,8.34,57,33,2.37,RU,1727323757
348,barclayville,4.6797,-8.2339,23.38,93,55,0.46,LR,1727323758
349,lerwick,60.1545,-1.1494,6.85,78,36,3.06,GB,1727323758
350,praia da vitoria,38.7333,-27.0667,19.75,72,83,4.03,PT,1727323758
351,terbuny,52.1389,38.2789,9.07,30,63,3.78,RU,1727323758
352,yakeshi,49.2833,120.7333,19.91,25,67,3.75,CN,1727323758
353,nyagan,62.1406,65.3936,2.31,54,100,2.0,RU,1727323738
354,wakkanai,45.4094,141.6739,19.34,69,89,3.29,JP,1727323745
355,dolores,-36.3132,-57.6792,6.93,86,0,4.56,AR,1727323760
356,zheleznodorozhnyy,55.7503,38.0042,11.16,24,100,3.87,RU,1727323760
357,yemetsk,63.4721,41.7941,13.79,66,80,4.41,RU,1727323760
358,oranjemund,-28.55,16.4333,12.64,69,97,2.62,NA,1727323761
359,vorkuta,67.5,64.0,0.03,75,100,3.9,RU,1727323761
360,manavalakurichi,8.1333,77.3,32.14,66,94,7.48,IN,1727323761
361,gornopravdinsk,60.05,69.9,1.51,73,18,4.2,RU,1727323761
362,chifeng,42.2683,118.9636,18.92,41,1,2.12,CN,1727323761
363,el nido,11.1858,119.3956,29.51,72,32,0.83,PH,1727323761
364,janjgir,22.0091,82.5789,25.52,90,100,2.91,IN,1727323762
365,petushki,55.9264,39.461,10.87,30,100,3.06,RU,1727323762
366,roma,43.2128,-75.4557,15.37,94,100,3.09,US,1727323564
367,ciudad lazaro cardenas,17.9583,-102.2,24.75,84,100,7.45,MX,1727323762
368,al jawf,29.5,38.75,24.46,31,0,2.84,SA,1727323763
369,bor,56.3567,44.0669,8.96,33,4,3.71,RU,1727323763
370,apac,1.9756,32.5386,17.96,92,71,0.75,UG,1727323763
371,newnham,-41.3833,147.1333,12.53,40,81,3.09,AU,1727323763
372,gadzhiyevo,69.2551,33.3362,11.52,88,87,8.74,RU,1727323763
373,holualoa,19.6228,-155.9522,24.91,92,75,3.09,US,1727323763
374,flying fish cove,-10.4217,105.6791,27.82,74,75,3.6,CX,1727323764
375,la passe,45.5549,-0.8967,17.78,90,100,7.61,FR,1727323764
376,san patricio,28.017,-97.5169,26.97,62,78,5.15,US,1727323764
377,las palmas de gran canaria,28.0997,-15.4134,22.07,78,20,5.66,ES,1727323764
378,ploneour-lanvern,47.9,-4.2833,16.18,88,75,5.66,FR,1727323764
379,remire-montjoly,4.9167,-52.2667,26.02,89,0,1.54,GF,1727323764
380,lubango,-14.9172,13.4925,17.52,49,67,1.04,AO,1727323765
381,yelizovo,53.1873,158.3805,17.08,42,20,3.0,RU,1727323765
382,przasnysz,53.0191,20.8803,11.36,82,100,3.72,PL,1727323754
383,attapeu,14.8,106.8333,32.94,57,39,1.12,LA,1727323765
384,tanout,14.9709,8.8879,29.92,38,96,2.88,NE,1727323765
385,torrita di siena,43.1702,11.7794,16.7,96,8,2.9,IT,1727323766
386,gamba,-2.65,10.0,23.88,91,100,1.93,GA,1727323766
387,kerikeri,-35.2268,173.9474,19.72,46,54,3.4,NZ,1727323766
388,ciudad tula,23.0,-99.7167,18.26,96,0,1.64,MX,1727323766
389,piacabucu,-10.4056,-36.4344,22.75,82,42,3.08,BR,1727323542
390,fada,7.25,4.0667,21.72,99,100,0.71,NG,1727323766
391,abra pampa,-22.7205,-65.697,11.31,56,0,6.66,AR,1727323767
392,sao felix do xingu,-6.6447,-51.995,23.71,72,57,1.04,BR,1727323767
393,auki,-8.7676,160.7034,29.26,69,64,0.58,SB,1727323767
394,yuzhno-kurilsk,44.0306,145.8556,16.84,81,100,4.45,RU,1727323767
395,moranbah,-22.0016,148.0466,31.24,30,100,1.26,AU,1727323767
396,porto torres,40.835,8.3972,22.1,89,10,5.93,IT,1727323768
397,orshanka,56.9161,47.8933,8.9,48,17,3.12,RU,1727323768
398,buckhannon,38.994,-80.232,20.15,87,100,0.89,US,1727323768
399,itoman,26.1247,127.6694,31.43,81,75,8.75,JP,1727323768
400,tidjikja,18.5564,-11.4271,29.96,52,100,1.01,MR,1727323768
401,karamay,45.6004,84.8661,12.36,76,100,3.19,CN,1727323768
402,bandon,51.7469,-8.7425,8.77,92,100,7.4,IE,1727323769
403,kourou,5.1552,-52.6478,26.08,81,36,3.28,GF,1727323769
404,rio grande,-32.035,-52.0986,17.84,99,100,2.45,BR,1727323577
405,kirovsk,48.6375,38.6428,11.36,49,1,2.77,UA,1727323769
406,isabela,6.7085,121.9711,32.03,65,100,1.38,PH,1727323769
407,tangalle,6.024,80.7911,31.18,62,94,5.35,LK,1727323769
408,simpang,-1.2667,104.0833,24.85,93,100,0.75,ID,1727323677
409,commercy,48.75,5.5,15.81,95,100,10.82,FR,1727323770
410,fortuna,40.5982,-124.1573,13.53,95,40,1.54,US,1727323770
411,zhengjiatun,43.5064,123.5064,20.5,45,5,2.92,CN,1727323770
412,tukrah,32.5341,20.5791,24.0,66,2,4.29,LY,1727323770
413,port moresby,-9.4431,147.1797,31.68,62,40,5.14,PG,1727323501
414,novoishimskiy,53.1981,66.7694,6.14,58,11,2.87,KZ,1727323771
415,kushiro,42.975,144.3747,17.35,85,100,3.34,JP,1727323725
416,kikwit,-5.041,18.8162,21.8,85,91,0.11,CD,1727323771
417,coruripe,-10.1256,-36.1756,22.29,84,54,3.12,BR,1727323771
418,danjiangkou,32.5428,111.5086,28.08,36,97,3.25,CN,1727323772
419,el granada,37.5027,-122.4694,15.77,87,100,6.17,US,1727323772
420,riyadh,24.6877,46.7219,27.88,25,6,4.11,SA,1727323504
421,chonchi,-42.6128,-73.8092,2.84,94,68,0.97,CL,1727323772
422,bambari,5.768,20.6757,21.85,96,100,0.97,CF,1727323633
423,ketchikan,55.3422,-131.6461,9.26,87,40,1.54,US,1727323773
424,san juan,-31.5375,-68.5364,11.16,36,0,3.96,AR,1727323395
425,lorengau,-2.0226,147.2712,29.53,69,81,2.2,PG,1727323773
426,belabo,4.9333,13.3,19.37,99,87,0.94,CM,1727323773
427,christchurch,-43.5333,172.6333,18.11,55,40,4.63,NZ,1727323149
428,togur,58.3631,82.8265,1.71,85,100,4.26,RU,1727323774
429,filadelfia,39.9523,-75.1638,19.59,92,100,2.06,US,1727323774
430,paita,-5.0892,-81.1144,16.87,87,2,3.83,PE,1727323774
431,guerrero negro,27.9769,-114.0611,18.84,87,3,7.79,MX,1727323774
432,punta del este,-34.9667,-54.95,13.26,95,100,5.66,UY,1727323668
433,port douglas,-16.4833,145.4667,25.8,69,20,3.26,AU,1727323774
434,loiza,18.4313,-65.8802,28.99,86,75,3.6,PR,1727323775
435,sosnovoborsk,56.1325,93.3589,7.42,51,78,5.83,RU,1727323775
436,greymouth,-42.4667,171.2,13.0,98,100,9.7,NZ,1727323775
437,prince rupert,54.3161,-130.3201,8.67,87,49,2.65,CA,1727323775
438,ilomantsi,62.6716,30.9328,13.51,78,100,5.74,FI,1727323775
439,inverloch,-38.6333,145.7167,10.93,55,31,5.84,AU,1727323776
440,ta`u,-14.2336,-169.5144,27.09,73,98,3.83,AS,1727323776
441,afaahiti,-17.75,-149.2833,25.12,82,35,5.43,PF,1727323776
442,san matias,-16.3667,-58.4,32.24,22,100,2.59,BO,1727323776
443,melfort,52.8667,-104.6177,24.14,38,2,6.14,CA,1727323712
444,labasa,-16.4167,179.3833,26.01,62,61,4.66,FJ,1727323777
445,ugoofaaru,5.6667,73.0,27.12,83,100,6.15,MV,1727323777
446,bitlis,38.5,42.25,12.4,52,0,1.71,TR,1727323777
447,ma'an,26.9775,110.7211,28.5,59,14,1.52,CN,1727323777
448,xinqing,48.2333,129.5,14.29,63,92,3.37,CN,1727323777
449,zeya,53.75,127.2667,17.28,47,18,1.09,RU,1727323777
450,la paz,-16.5,-68.15,10.32,68,20,1.34,BO,1727323309
451,eduardo castex,-35.915,-64.2945,6.88,58,0,2.94,AR,1727323778
452,kangiwa,12.5521,3.8187,25.91,78,8,2.93,NG,1727323778
453,hithadhoo,-0.6,73.0833,28.31,74,81,5.4,MV,1727323778
454,wenchang,30.904,118.4887,28.19,63,100,3.34,CN,1727323778
455,hudiksvall,61.729,17.1036,6.26,77,19,4.16,SE,1727323778
456,gilgit,35.9221,74.3087,24.31,39,0,2.46,PK,1727323779
457,necochea,-38.5473,-58.7368,8.12,78,100,2.31,AR,1727323660
458,anisoc,1.8658,10.7689,21.3,99,97,0.79,GQ,1727323779
459,cabedelo,-6.9811,-34.8339,23.37,80,21,5.7,BR,1727323502
460,trakai,54.6333,24.9333,13.98,89,45,3.52,LT,1727323779
461,san luis de la loma,17.2706,-100.8939,24.35,97,100,8.69,MX,1727323780
462,panjakent,39.4952,67.6093,24.63,23,84,2.86,TJ,1727323780
463,bekondo,4.6819,9.3214,21.07,97,57,1.27,CM,1727323780
464,daru,-9.0763,143.2092,27.25,82,91,6.56,PG,1727323780
465,cinarcik,40.6412,29.146,19.08,69,7,2.66,TR,1727323781
466,zaozersk,69.4005,32.4476,11.68,88,94,9.29,RU,1727323781
467,olinda,-8.0089,-34.8553,25.85,73,40,4.12,BR,1727323658
468,taro,-8.3862,115.28,27.41,67,100,1.45,ID,1727323781
469,taroa,8.7058,171.2275,28.68,71,19,1.9,MH,1727323782
470,idri,27.5,13.2667,27.62,42,42,5.38,LY,1727323782
471,soio,-6.1349,12.3689,23.86,86,99,2.99,AO,1727323782
472,alice springs,-23.7,133.8833,24.75,36,0,5.66,AU,1727323782
473,labytnangi,66.6572,66.4183,0.21,66,95,0.94,RU,1727323726
474,lhuentse,27.6679,91.1839,19.79,94,100,0.64,BT,1727323782
475,mezhdurechenskiy,59.6,65.9333,1.8,56,80,2.89,RU,1727323732
476,pokaran,26.9167,71.9167,35.98,29,5,0.92,IN,1727323783
477,murzuq,25.9155,13.9184,28.16,38,3,5.49,LY,1727323783
478,thinadhoo,0.5333,72.9333,28.54,74,94,6.21,MV,1727323783
479,huanren,41.2647,125.3667,20.78,57,51,1.73,CN,1727323783
480,port blair,11.6667,92.75,30.02,79,40,3.6,IN,1727323783
481,grimmen,54.1121,13.0405,13.55,94,100,5.11,DE,1727323784
482,mossel bay,-34.1831,22.146,13.57,80,82,4.05,ZA,1727323784
483,slave lake,55.2834,-114.769,10.09,87,76,4.53,CA,1727323784
484,gandiaye,14.2333,-16.2667,23.7,96,100,3.19,SN,1727323784
485,axim,4.8699,-2.2405,24.04,91,65,2.21,GH,1727323785
486,namtsy,62.7161,129.6658,14.94,48,19,5.78,RU,1727323785
487,hoa binh,20.8133,105.3383,29.86,67,60,1.48,VN,1727323785
488,cockburn town,21.4612,-71.1419,29.4,75,20,7.17,TC,1727323589
489,howard springs,-12.497,131.047,34.43,59,34,3.18,AU,1727323785
490,forster,-32.1667,152.5167,15.21,96,100,9.11,AU,1727323617
491,odienne,9.51,-7.5692,20.81,98,91,1.62,CI,1727323786
492,antofagasta,-23.65,-70.4,14.6,79,44,3.86,CL,1727323534
493,aldinga beach,-35.2793,138.4604,17.58,46,3,5.21,AU,1727323786
494,gufeng,26.9083,118.9819,21.36,96,100,0.56,CN,1727323786
495,ialibu,-6.2821,143.9935,19.21,87,93,0.88,PG,1727323786
496,santa cruz,-17.8,-63.1667,26.7,78,4,2.06,BO,1727323783
497,ordubad,38.9059,46.0234,16.74,84,10,4.3,AZ,1727323787
498,kerema,-7.9631,145.7785,28.04,79,42,4.11,PG,1727323787
499,chibougamau,49.9168,-74.3659,10.33,93,100,7.11,CA,1727323787
500,koungheul,13.9833,-14.8,23.31,96,100,3.72,SN,1727323788
501,juneau,58.3019,-134.4197,8.0,97,75,3.09,US,1727323692
502,maceio,-9.6658,-35.7353,22.69,88,75,1.54,BR,1727323788
503,cannonvale,-20.2833,148.7,26.66,65,87,4.0,AU,1727323788
504,nadym,65.5333,72.5167,0.03,82,100,8.74,RU,1727323788
505,sola,-13.8833,167.55,25.66,79,5,9.47,VU,1727323789
506,dasnapur,19.654,78.5121,27.42,83,100,0.56,IN,1727323511
507,paso de los toros,-32.8167,-56.5167,15.04,92,100,5.66,UY,1727323789
508,gua musang,4.8823,101.9644,28.85,68,99,0.67,MY,1727323789
509,spanish wells,26.323,-81.7957,25.01,55,100,0.45,US,1727323790
510,muroto-misakicho,33.2833,134.15,26.28,74,3,7.59,JP,1727323790
511,jieshi,22.8134,115.8257,29.09,74,46,2.02,CN,1727323658
512,kendari,-3.945,122.4989,32.87,48,98,3.67,ID,1727323790
513,gulf shores,30.246,-87.7008,25.56,84,40,3.09,US,1727323515
514,zhangye,38.9342,100.4517,27.85,16,30,4.76,CN,1727323791
515,evansville,37.9748,-87.5558,18.56,83,0,1.54,US,1727323634
516,tataouine,32.9297,10.4518,23.32,47,0,2.09,TN,1727323791
517,porto novo,6.4965,2.6036,23.89,89,70,1.43,BJ,1727323791
518,san lorenzo de el escorial,40.5914,-4.1474,15.42,71,99,3.09,ES,1727323791
519,mugumu,-1.85,34.7,19.32,61,100,2.45,TZ,1727323694
520,karratha,-20.7377,116.8463,27.77,51,0,5.84,AU,1727323792
521,brokopondo,4.75,-55.1667,26.32,76,2,4.88,SR,1727323792
522,amga,60.8953,131.9608,14.61,55,8,3.87,RU,1727323792
523,sunne,59.8376,13.143,6.02,95,17,1.94,SE,1727323792
524,carbonear,47.7332,-53.2148,10.19,92,100,4.38,CA,1727323793
525,copiapo,-27.3667,-70.3333,13.02,67,0,0.96,CL,1727323793
526,barcelos,41.5388,-8.6151,18.99,98,100,8.43,PT,1727323716
527,maragogi,-9.0122,-35.2225,22.63,83,65,3.64,BR,1727323793
528,kasongo-lunda,-6.4667,16.8167,22.25,84,97,0.43,CD,1727323793
529,saipan,15.1355,145.701,32.39,70,20,6.69,MP,1727323793
530,mochudi,-24.4167,26.15,20.33,17,59,0.47,BW,1727323794
531,meadow lake,34.8014,-106.5436,22.96,30,0,3.14,US,1727323794
532,adigrat,14.277,39.462,16.12,52,83,0.64,ET,1727323794
533,mount isa,-20.7333,139.5,31.87,37,40,3.6,AU,1727323794
534,labrador city,52.9463,-66.9114,8.99,80,75,5.36,CA,1727323794
535,telfs,47.3,11.0667,12.71,86,100,3.27,AT,1727323795
536,bamboo flat,11.7,92.7167,30.05,79,40,3.6,IN,1727323795
537,aykhal,66.0,111.5,2.39,72,83,6.31,RU,1727323795
538,tyukhtet,56.5389,89.3011,3.09,83,100,4.12,RU,1727323795
539,freetown,8.484,-13.2299,24.18,88,100,1.9,SL,1727323795
540,winnemucca,40.973,-117.7357,20.03,24,0,4.12,US,1727323796
541,tadine,-21.55,167.8833,23.96,60,7,5.35,NC,1727323796
542,colares,38.7992,-9.4469,20.55,86,26,7.47,PT,1727323796
543,fenoarivo be,-18.4333,46.5667,19.06,50,41,2.9,MG,1727323796
544,tuapse,44.1125,39.0742,18.06,85,0,2.16,RU,1727323796
545,arkalyk,50.2486,66.9114,7.15,47,1,5.3,KZ,1727323796
546,anna regina,7.2644,-58.5077,27.51,75,64,3.57,GY,1727323797
547,jaltocan,21.15,-98.5333,22.47,92,80,1.79,MX,1727323797
548,korla,41.7597,86.1469,25.63,27,47,3.0,CN,1727323797
549,uray,60.1247,64.7758,2.0,54,100,2.54,RU,1727323759
550,jaumave,23.4167,-99.3833,20.44,95,41,0.92,MX,1727323797
551,guigang,23.0964,109.6092,28.82,71,95,0.65,CN,1727323797
552,pamanukan,-6.2842,107.8106,33.45,47,92,2.92,ID,1727323798
553,rovaniemi,66.5,25.7167,10.67,93,75,7.2,FI,1727323798
554,lautoka,-17.6167,177.4667,27.92,57,40,5.14,FJ,1727323527
555,tazacorte,28.629,-17.9293,21.54,73,0,3.6,ES,1727323798
556,qamdo,31.1667,97.2333,13.75,42,31,0.91,CN,1727323798
557,ondjiva,-17.0667,15.7333,20.48,31,35,1.58,AO,1727323799
558,phalodi,27.1333,72.3667,35.46,37,8,3.63,IN,1727323799
559,ribeirao bonito,-22.0667,-48.1761,24.6,30,0,2.67,BR,1727323799
560,itaituba,-4.2761,-55.9836,25.75,67,66,0.52,BR,1727323598
561,tornio,65.8481,24.1466,13.01,86,88,11.49,FI,1727323799
562,mokwa,9.2833,5.05,22.99,95,54,1.47,NG,1727323800
563,aanekoski,62.6946,25.818,11.03,100,58,6.03,FI,1727323800
564,buon ma thuot,12.6667,108.05,30.48,54,31,1.56,VN,1727323800
565,ban tak,17.0432,99.0813,26.8,85,85,0.98,TH,1727323800
566,paraty,-23.2178,-44.7131,24.92,51,0,1.74,BR,1727323589
567,caleta de carquin,-11.0925,-77.6267,16.72,85,71,4.85,PE,1727323801
568,heerde,52.3872,6.0402,14.5,94,100,4.02,NL,1727323801
569,qui nhon,13.7667,109.2333,29.45,70,99,2.91,VN,1727323801
570,tibagi,-24.5094,-50.4136,21.18,39,18,1.79,BR,1727323801
571,praya,14.9215,-23.5087,25.3,88,75,2.57,CV,1727323801
572,yerofey pavlovich,53.9667,121.9667,16.57,41,22,3.01,RU,1727323802
573,sao paulo de olivenca,-3.3783,-68.8725,26.03,63,80,1.23,BR,1727323802
574,charlestown,-32.95,151.6667,14.29,96,100,5.36,AU,1727323518
575,longboat key,27.4125,-82.659,26.11,75,20,6.69,US,1727323800
576,semnan,35.5729,53.3971,21.66,46,0,2.75,IR,1727323802
577,viedma,-40.8135,-62.9967,5.22,39,0,4.06,AR,1727323803
578,nizhnesortymskiy,62.4397,71.7603,-0.21,78,77,8.57,RU,1727323803
579,kiffa,16.6166,-11.4045,28.6,64,100,4.16,MR,1727323803
580,zunyi,27.6867,106.9072,17.8,91,100,0.49,CN,1727323803
581,andovoranto,-18.95,49.1,22.22,76,74,0.36,MG,1727323803
582,gannan,47.9147,123.5031,21.69,36,22,4.65,CN,1727323652
583,greystones,53.1408,-6.0631,12.16,95,100,2.64,IE,1727323804
584,kampene,-3.6,26.6667,19.48,94,69,0.07,CD,1727323804
585,paracatu,-17.2222,-46.8747,22.95,37,0,1.19,BR,1727323804
586,baoshan,46.5586,131.4244,14.79,68,87,3.82,CN,1727323804
587,saurimo,-9.6608,20.3916,19.54,39,99,1.37,AO,1727323804
588,mizan teferi,6.9833,35.5833,16.27,96,100,0.96,ET,1727323804
589,montepuez,-13.1256,38.9997,19.85,84,38,1.5,MZ,1727323805
590,qalat,32.1058,66.9083,25.85,10,0,0.5,AF,1727323805
591,luderitz,-26.6481,15.1594,14.31,53,96,5.18,NA,1727323805
592,esquel,-42.9,-71.3167,-0.15,84,100,2.72,AR,1727323805
593,la'ie,21.6477,-157.9253,27.66,75,50,1.34,US,1727323805
594,rio claro,-22.4114,-47.5614,22.87,33,0,2.03,BR,1727323806
595,quellon,-43.1167,-73.6167,3.37,87,35,1.79,CL,1727323806
